{
  "arcades": [
    {
      "id": "jjanggu-gamejang",
      "name": "짱구 게임장",
      "latitude": 37.61924,
      "longitude": 126.91936,
      "address": "서울 연서로 29길 8-8",
      "notes": ""
    },
    {
      "id": "amuse-town-arcade",
      "name": "어뮤즈 타운 오락실",
      "latitude": 37.5127598014303,
      "longitude": 126.944975816586,
      "address": "서울 동작구 만양로 14가길 26",
      "notes": ""
    },
    {
      "id": "hwajeong-gameland",
      "name": "화정게임랜드",
      "latitude": 37.6325716781014,
      "longitude": 126.831883497604,
      "address": "경기도 고양시 덕양구 화신로272 38",
      "notes": ""
    },
    {
      "id": "funcity-geondae",
      "name": "펀시티 건대점",
      "latitude": 37.5414450784985,
      "longitude": 127.068791662125,
      "address": "서울 광진구 동일로 22길 81",
      "notes": ""
    },
    {
      "id": "hanyang-gamecenter",
      "name": "한양게임센터",
      "latitude": 37.5587090278115,
      "longitude": 127.040554610589,
      "address": "서울 성동구 마조로 9",
      "notes": ""
    },
    {
      "id": "beat-lab",
      "name": "비트연구소",
      "latitude": 37.6219624515015,
      "longitude": 127.073855850777,
      "address": "서울 노원구 동일로 1029",
      "notes": ""
    },
    {
      "id": "cpu-gameland",
      "name": "시피유 게임랜드",
      "latitude": 37.4631056063151,
      "longitude": 126.681445440328,
      "address": "인천 미추홀구 미추홀대로734번길 17",
      "notes": ""
    }
  ]
}
